[
    {
        "exit": "14",
        "name": "Ang Mo Kio Ave 3 and Ang Mo Kio Ave 5",
        "lat": "1.3802388000960637",
        "lng": "103.85836206710337"
    },
    {
        "exit": "11",
        "name": "Ang Mo Kio Ave 1",
        "lat": "1.3582167779427583",
        "lng": "103.85759294366835"
    },
    {
        "exit": "10",
        "name": "Braddell Rd",
        "lat": "1.3470498310956582",
        "lng": "103.85922842061518"
    },
    {
        "exit": "8A",
        "name": "PIE (Tuas)",
        "lat": "1.3299540736399194",
        "lng": "103.8624651763439"
    },
    {
        "exit": "7D",
        "name": "Jalan Kebun Limau",
        "lat": "1.3218854677202394",
        "lng": "103.8566286895275"
    },
    {
        "exit": "7C",
        "name": "Moulmein Rd",
        "lat": "1.3196068661293137",
        "lng": "103.85376610195635"
    },
    {
        "exit": "6",
        "name": "Cavenagh Rd",
        "lat": "1.3141024157287056",
        "lng": "103.84553306138514"
    },
    {
        "exit": "5",
        "name": "Cairnhill Circle",
        "lat": "1.308395499223562",
        "lng": "103.842311057806"
    },
    {
        "exit": "4",
        "name": "Buyong Rd to Orchard Rd",
        "lat": "1.3032885588199912",
        "lng": "103.84081974959372"
    },
    {
        "exit": "2",
        "name": "Clemenceau Ave, Merchant Rd and Havelock Rd",
        "lat": "1.2916514266753647",
        "lng": "103.84344160890578"
    }
]